[
    {
        "id": 21,
        "place_id": "ChIJRUWgxgmoXZQRKCKhTnJ9W3I",
        "nombre": "Hotel Westfalenhaus",
        "direccion": "Sargento 1ro Manuel Benítez 1577, Kuarajhy",
        "lat": -25.2688924,
        "lng": -57.56644259999999,
        "categoria": "comida",
        "tipos": "lodging,restaurant,food,point_of_interest,establishment",
        "rating": 4.5,
        "telefono": "0971 291241",
        "web": "http://www.westfalenhaus.com/",
        "fecha_actualizacion": "2026-02-03T16:36:53.337845"
    },
    {
        "id": 22,
        "place_id": "ChIJC75BVkemXZQRViMwGba0WrI",
        "nombre": "Pizza Hut",
        "direccion": "Santisimo Sacramento, Asunción",
        "lat": -25.2651409,
        "lng": -57.5820386,
        "categoria": "comida",
        "tipos": "restaurant,food,point_of_interest,establishment",
        "rating": 4.0,
        "telefono": "(021) 218 9000",
        "web": "http://www.pizzahut.com.py/",
        "fecha_actualizacion": "2026-02-03T16:36:53.767394"
    },
    {
        "id": 23,
        "place_id": "ChIJ9TQW1kOmXZQR3eXcb_aZmd0",
        "nombre": "Pizza Grossa",
        "direccion": "Caracas, Asunción",
        "lat": -25.2580982,
        "lng": -57.5792681,
        "categoria": "comida",
        "tipos": "meal_delivery,bar,meal_takeaway,restaurant,food,point_of_interest,establishment",
        "rating": 4.4,
        "telefono": "0982 104759",
        "web": "",
        "fecha_actualizacion": "2026-02-03T16:36:54.178406"
    },
    {
        "id": 24,
        "place_id": "ChIJz7dBvBGmXZQRk0caPtt6cIo",
        "nombre": "Alberdin Santisima Trinidad",
        "direccion": "&, Av Santísima Trinidad &, Kuarahy, Asunción",
        "lat": -25.2679729,
        "lng": -57.56640239999999,
        "categoria": "comida",
        "tipos": "restaurant,food,point_of_interest,establishment",
        "rating": 4.0,
        "telefono": "(021) 237 7070",
        "web": "http://www.alberdin.com.py/",
        "fecha_actualizacion": "2026-02-03T16:36:54.448913"
    },
    {
        "id": 25,
        "place_id": "ChIJuTykxSKnXZQRtZAeQTasAEg",
        "nombre": "Das Grillhaus ~ El toque alemán",
        "direccion": "Sargento 1ro Manuel Benítez 1575 casi, Kuarajhy",
        "lat": -25.269038,
        "lng": -57.5662247,
        "categoria": "comida",
        "tipos": "restaurant,food,point_of_interest,establishment",
        "rating": 4.4,
        "telefono": "0975 297966",
        "web": "",
        "fecha_actualizacion": "2026-02-03T16:36:54.996010"
    },
    {
        "id": 27,
        "place_id": "ChIJg02xWgCnXZQRMGk7m6yAHqg",
        "nombre": "La maltratadora maria almirón.",
        "direccion": "PCM9+QJ8, Asunción",
        "lat": -25.2655815,
        "lng": -57.58092989999999,
        "categoria": "turismo",
        "tipos": "tourist_attraction,point_of_interest,establishment",
        "rating": 0.0,
        "telefono": "",
        "web": "",
        "fecha_actualizacion": "2026-02-03T16:36:56.750032"
    },
    {
        "id": 28,
        "place_id": "ChIJV15IXESmXZQRNrh8jmpakfY",
        "nombre": "Holy Trinity Church",
        "direccion": "PCR9+7X9, &, Asunción",
        "lat": -25.2592292,
        "lng": -57.5810759,
        "categoria": "turismo",
        "tipos": "tourist_attraction,church,place_of_worship,point_of_interest,establishment",
        "rating": 4.6,
        "telefono": "0984 762682",
        "web": "https://web.facebook.com/Parroquia-Sant%C3%ADsima-Trinidad-188488504532992/",
        "fecha_actualizacion": "2026-02-03T16:36:56.972561"
    },
    {
        "id": 29,
        "place_id": "ChIJbSz8daynXZQRq2l89YPMWCM",
        "nombre": "Casa de gabriel",
        "direccion": "Heriberto Gómez de la Fuente 209, Asunción",
        "lat": -25.27052399999999,
        "lng": -57.57758699999999,
        "categoria": "turismo",
        "tipos": "tourist_attraction,point_of_interest,establishment",
        "rating": 4.5,
        "telefono": "",
        "web": "",
        "fecha_actualizacion": "2026-02-03T16:36:57.377758"
    },
    {
        "id": 30,
        "place_id": "ChIJB8sTaACnXZQRW2WiQcc2Cic",
        "nombre": "Quinta belloto",
        "direccion": "PCRM+CHQ, Avenida Primer Presidente, Asunción",
        "lat": -25.2589009,
        "lng": -57.5660051,
        "categoria": "turismo",
        "tipos": "tourist_attraction,point_of_interest,establishment",
        "rating": 0.0,
        "telefono": "",
        "web": "",
        "fecha_actualizacion": "2026-02-03T16:36:57.623073"
    },
    {
        "id": 31,
        "place_id": "ChIJI0qN0BOmXZQRQ7y1OCRWOW4",
        "nombre": "Atelier Boutique de Arte",
        "direccion": "1975, Avenida Santísima Trinidad, Asunción",
        "lat": -25.2654025,
        "lng": -57.570356,
        "categoria": "cultura",
        "tipos": "museum,point_of_interest,establishment",
        "rating": 4.5,
        "telefono": "0981 872176",
        "web": "http://atelierboutiquedearte.wordpress.com/",
        "fecha_actualizacion": "2026-02-03T16:36:59.813672"
    },
    {
        "id": 32,
        "place_id": "ChIJBXMOfB2nXZQRldZegmsQI88",
        "nombre": "Hamptons de Molas López",
        "direccion": "Molas Lopez casi, Asunción",
        "lat": -25.2641725,
        "lng": -57.5782385,
        "categoria": "cultura",
        "tipos": "museum,point_of_interest,establishment",
        "rating": 5.0,
        "telefono": "",
        "web": "",
        "fecha_actualizacion": "2026-02-03T16:37:00.324819"
    },
    {
        "id": 33,
        "place_id": "ChIJz0FT5kSmXZQRM__9ml6lgI0",
        "nombre": "1A Cultural Center & Memorial: Ycuá Bolaños",
        "direccion": "PCV8+9F3, Asunción",
        "lat": -25.2566084,
        "lng": -57.5838237,
        "categoria": "cultura",
        "tipos": "museum,point_of_interest,establishment",
        "rating": 4.3,
        "telefono": "",
        "web": "https://www.memorial1-a.com/",
        "fecha_actualizacion": "2026-02-03T16:37:00.935659"
    },
    {
        "id": 34,
        "place_id": "ChIJdeAm6FymXZQRTQ9USNGNZcY",
        "nombre": "MUSA - Museum of Chairs Asuncion",
        "direccion": "Avenida General José Gervasio Artigas 4289, Asunción",
        "lat": -25.2527744,
        "lng": -57.5795817,
        "categoria": "cultura",
        "tipos": "museum,tourist_attraction,point_of_interest,establishment",
        "rating": 0.0,
        "telefono": "(021) 297 500",
        "web": "https://musa.com.py/",
        "fecha_actualizacion": "2026-02-03T16:37:01.242525"
    },
    {
        "id": 35,
        "place_id": "ChIJkWj4IBinXZQRUiJtt8Mupc0",
        "nombre": "Tunel Itapua",
        "direccion": "PCVM+CHM, Asunción",
        "lat": -25.25641379999999,
        "lng": -57.5660932,
        "categoria": "cultura",
        "tipos": "museum,point_of_interest,establishment",
        "rating": 5.0,
        "telefono": "",
        "web": "",
        "fecha_actualizacion": "2026-02-03T16:37:01.856842"
    },
    {
        "id": 36,
        "place_id": "ChIJxzd0ISOmXZQRdqrDt4065bU",
        "nombre": "Parque de la Salud",
        "direccion": "Doctor Manuel Peña, Augusto Roa Bastos y, Asunción",
        "lat": -25.2757387,
        "lng": -57.57963669999999,
        "categoria": "recreacion",
        "tipos": "park,tourist_attraction,point_of_interest,establishment",
        "rating": 4.7,
        "telefono": "(021) 223 1413",
        "web": "",
        "fecha_actualizacion": "2026-02-03T16:37:03.596516"
    },
    {
        "id": 37,
        "place_id": "ChIJaSsCbwCnXZQRF8_TI8gXed8",
        "nombre": "Plaza El Pinar",
        "direccion": "PCPF+GJ4, Asunción",
        "lat": -25.26373989999999,
        "lng": -57.57592599999999,
        "categoria": "recreacion",
        "tipos": "park,point_of_interest,establishment",
        "rating": 0.0,
        "telefono": "",
        "web": "",
        "fecha_actualizacion": "2026-02-03T16:37:03.909206"
    },
    {
        "id": 38,
        "place_id": "ChIJ29VjQ0CnXZQRd-nlzqBdAKg",
        "nombre": "mby ra mby rahei",
        "direccion": "PCPF+GJ4, Asunción",
        "lat": -25.26373989999999,
        "lng": -57.57592599999999,
        "categoria": "recreacion",
        "tipos": "park,point_of_interest,establishment",
        "rating": 0.0,
        "telefono": "",
        "web": "",
        "fecha_actualizacion": "2026-02-03T16:37:04.152766"
    },
    {
        "id": 39,
        "place_id": "ChIJ5fMCtZGnXZQRql2BZNyWkrs",
        "nombre": "Parque Ricardo Paraguayo",
        "direccion": "PCPF+GJH, Asunción",
        "lat": -25.26373989999999,
        "lng": -57.57592599999999,
        "categoria": "recreacion",
        "tipos": "park,point_of_interest,establishment",
        "rating": 0.0,
        "telefono": "",
        "web": "",
        "fecha_actualizacion": "2026-02-03T16:37:04.375863"
    },
    {
        "id": 40,
        "place_id": "ChIJvQQWCxWmXZQRHNcfrI8mV_A",
        "nombre": "Plaza Ycua Francia",
        "direccion": "PCMG+M6P, Asunción",
        "lat": -25.2657801,
        "lng": -57.5744202,
        "categoria": "recreacion",
        "tipos": "park,point_of_interest,establishment",
        "rating": 3.8,
        "telefono": "",
        "web": "",
        "fecha_actualizacion": "2026-02-03T16:37:04.827195"
    }
]